{
  "type": "FeatureCollection",
  "name": "Ateliers",
  "features": [
    { "type": "Feature", "properties": { "nom": "The Flat Bike Collective", "logo_path": "/imgs/atelier-logos/BB_FLAT.png" }, "geometry": { "type": "Point", "coordinates": [ -73.578281077645997, 45.503584453359089 ] } },
    { "type": "Feature", "properties": { "nom": "Biciklo", "logo_path": "/imgs/atelier-logos/BB_BICIKLO_A.png" }, "geometry": { "type": "Point", "coordinates": [ -73.62340036, 45.50182965 ] } },
    { "type": "Feature", "properties": { "nom": "Coop Bécyk", "logo_path": "/imgs/atelier-logos/BB_BECYK.png" }, "geometry": { "type": "Point", "coordinates": [ -73.61436957, 45.50441172 ] } },
    { "type": "Feature", "properties": { "nom": "Nid de Poule", "logo_path": "/imgs/atelier-logos/BB_NDP.png" }, "geometry": { "type": "Point", "coordinates": [ -73.56790402, 45.51688699 ] } },
    { "type": "Feature", "properties": { "nom": "La C.R.A.B.E.", "logo_path": "/imgs/atelier-logos/BB_CRABE.png" }, "geometry": { "type": "Point", "coordinates": [ -73.56253339, 45.49496663 ] } },
    { "type": "Feature", "properties": { "nom": "Cycle 7", "logo_path": "/imgs/atelier-logos/BB_C7.png" }, "geometry": { "type": "Point", "coordinates": [ -73.55248265, 45.48111285 ] } },
    { "type": "Feature", "properties": { "nom": "Right to Move / La Voie Libre", "logo_path": "/imgs/atelier-logos/BB_RTM_LVL.png" }, "geometry": { "type": "Point", "coordinates": [ -73.57941043, 45.49761647 ] } },
    { "type": "Feature", "properties": { "nom": "Atelier Culture Vélo", "logo_path": "/imgs/atelier-logos/BB_ACV.png" }, "geometry": { "type": "Point", "coordinates": [ -73.63084125, 45.53506429 ] } },
    { "type": "Feature", "properties": { "nom": "BQAM-E", "logo_path": "/imgs/atelier-logos/BB_BQAME.png", "url": "/fr/projects/BQAME" },"geometry": { "type": "Point", "coordinates": [ -73.57001538, 45.50981 ] } },
    { "type": "Feature", "properties": { "nom": "Santrovélo", "logo_path": "/imgs/atelier-logos/BB_Santrovelo.png", "url": "/fr/projects/santrovelo" }, "geometry": { "type": "Point", "coordinates": [ -73.57521853, 45.51668767 ] } },
    { "type": "Feature", "properties": { "nom": "La Remise", "logo_path": "/imgs/atelier-logos/BB_REMISE.png" }, "geometry": { "type": "Point", "coordinates": [ -73.60156388, 45.53746646 ] } },
    { "type": "Feature", "properties": { "nom": "La Grande Roue", "logo_path": "/imgs/atelier-logos/BB_GR.png" }, "geometry": { "type": "Point", "coordinates": [ -73.60078297, 45.56242496 ] } },
    { "type": "Feature", "properties": { "nom": "Tourne à Gauche", "logo_path": "/imgs/atelier-logos/BB_TAG.png" }, "geometry": { "type": "Point", "coordinates": [ -73.55663054, 45.53922831 ] } },
    { "type": "Feature", "properties": { "nom": "Bill's Bike Shop", "logo_path": "/imgs/atelier-logos/BB_BILLS.png" }, "geometry": { "type": "Point", "coordinates": [ -73.5654363, 45.47892323 ] } },
    { "type": "Feature", "properties": { "nom": "Le Petit Vélo Rouge", "logo_path": "/imgs/atelier-logos/BB_PVR_LRB.png" }, "geometry": { "type": "Point", "coordinates": [ -73.6396048, 45.45947092 ] } },
    { "type": "Feature", "properties": { "nom": "Mile End Bike Garage", "logo_path": "/imgs/atelier-logos/BB_MILEEND.png" }, "geometry": { "type": "Point", "coordinates": [ -73.60789406, 45.52761758 ] } },
    { "type": "Feature", "properties": { "nom": "B-Shoppe", "logo_path": "/imgs/atelier-logos/BB_BCHOPPE.png" }, "geometry": { "type": "Point", "coordinates": [ -73.53814834, 45.55187797 ] } },
    { "type": "Feature", "properties": { "nom": "Têtes de rayon", "logo_path": "/imgs/atelier-logos/BB_TDR.png", "url": "/fr/tetes-de-rayon" }, "geometry": { "type": "Point", "coordinates": [ -73.647643230015063, 45.549374529659914 ] } }
  ]
}