{
"type": "FeatureCollection",
"name": "Ateliers",
"features": [
{ "type": "Feature", "properties": { "nom": "The Flat Bike Collective" }, "geometry": { "type": "Point", "coordinates": [ -73.578281077645997, 45.503584453359089 ] } },
{ "type": "Feature", "properties": { "nom": "Biciklo" }, "geometry": { "type": "Point", "coordinates": [ -73.62340036, 45.50182965 ] } },
{ "type": "Feature", "properties": { "nom": "Coop Bécyk" }, "geometry": { "type": "Point", "coordinates": [ -73.61436957, 45.50441172 ] } },
{ "type": "Feature", "properties": { "nom": "Nid de Poule" }, "geometry": { "type": "Point", "coordinates": [ -73.56790402, 45.51688699 ] } },
{ "type": "Feature", "properties": { "nom": "La C.R.A.B.E." }, "geometry": { "type": "Point", "coordinates": [ -73.56253339, 45.49496663 ] } },
{ "type": "Feature", "properties": { "nom": "Cycle 7" }, "geometry": { "type": "Point", "coordinates": [ -73.55248265, 45.48111285 ] } },
{ "type": "Feature", "properties": { "nom": "Right to Move / La Voie Libre" }, "geometry": { "type": "Point", "coordinates": [ -73.57941043, 45.49761647 ] } },
{ "type": "Feature", "properties": { "nom": "Atelier Culture Vélo" }, "geometry": { "type": "Point", "coordinates": [ -73.63084125, 45.53506429 ] } },
{ "type": "Feature", "properties": { "nom": "BQAM-E" }, "geometry": { "type": "Point", "coordinates": [ -73.57001538, 45.50981 ] } },
{ "type": "Feature", "properties": { "nom": "Santrovélo" }, "geometry": { "type": "Point", "coordinates": [ -73.57521853, 45.51668767 ] } },
{ "type": "Feature", "properties": { "nom": "La Remise" }, "geometry": { "type": "Point", "coordinates": [ -73.60156388, 45.53746646 ] } },
{ "type": "Feature", "properties": { "nom": "La Grande Roue" }, "geometry": { "type": "Point", "coordinates": [ -73.60078297, 45.56242496 ] } },
{ "type": "Feature", "properties": { "nom": "Tourne à Gauche" }, "geometry": { "type": "Point", "coordinates": [ -73.55663054, 45.53922831 ] } },
{ "type": "Feature", "properties": { "nom": "Bill's Bike Shop" }, "geometry": { "type": "Point", "coordinates": [ -73.5654363, 45.47892323 ] } },
{ "type": "Feature", "properties": { "nom": "Le Petit Vélo Rouge" }, "geometry": { "type": "Point", "coordinates": [ -73.6396048, 45.45947092 ] } },
{ "type": "Feature", "properties": { "nom": "Mile End Bike Garage" }, "geometry": { "type": "Point", "coordinates": [ -73.60789406, 45.52761758 ] } },
{ "type": "Feature", "properties": { "nom": "B-Shoppe" }, "geometry": { "type": "Point", "coordinates": [ -73.53814834, 45.55187797 ] } },
{ "type": "Feature", "properties": { "nom": "Têtes de rayon" }, "geometry": { "type": "Point", "coordinates": [ -73.647643230015063, 45.549374529659914 ] } }
]
}
